[
  {
    "id": "target_001",
    "name": "北京首都国际机场",
    "longitude": 116.5974,
    "latitude": 40.0801,
    "height": 35,
    "region": "华北",
    "province": "北京市",
    "city": "北京市",
    "address": "北京市朝阳区首都机场",
    "createdAt": "2024-01-15T08:30:00Z"
  },
  {
    "id": "target_002",
    "name": "上海浦东国际机场",
    "longitude": 121.8057,
    "latitude": 31.1443,
    "height": 4,
    "region": "华东",
    "province": "上海市",
    "city": "上海市",
    "address": "上海市浦东新区浦东机场",
    "createdAt": "2024-01-15T01:31:00.000Z"
  },
  {
    "id": "target_003",
    "name": "广州白云国际机场",
    "longitude": 113.2990,
    "latitude": 23.3924,
    "height": 15,
    "region": "华南",
    "province": "广东省",
    "city": "广州市",
    "address": "广州市白云区白云机场",
    "createdAt": "2024-01-15T02:32:00.000Z"
  },
  {
    "id": "target_004",
    "name": "深圳宝安国际机场",
    "longitude": 113.8206,
    "latitude": 22.6390,
    "height": 4,
    "region": "华南",
    "province": "广东省",
    "city": "深圳市",
    "address": "深圳市宝安区宝安机场",
    "createdAt": "2024-01-15T03:33:00.000Z"
  },
  {
    "id": "target_005",
    "name": "成都双流国际机场",
    "longitude": 103.9470,
    "latitude": 30.5785,
    "height": 495,
    "region": "西南",
    "province": "四川省",
    "city": "成都市",
    "address": "成都市双流区双流机场",
    "createdAt": "2024-01-15T04:34:00.000Z"
  },
  {
    "id": "target_006",
    "name": "西安咸阳国际机场",
    "longitude": 108.7519,
    "latitude": 34.4471,
    "height": 479,
    "region": "西北",
    "province": "陕西省",
    "city": "西安市",
    "address": "西安市咸阳区咸阳机场",
    "createdAt": "2024-01-15T05:35:00.000Z"
  },
  {
    "id": "target_007",
    "name": "昆明长水国际机场",
    "longitude": 102.9292,
    "latitude": 25.1019,
    "height": 2102,
    "region": "西南",
    "province": "云南省",
    "city": "昆明市",
    "address": "昆明市官渡区长水机场",
    "createdAt": "2024-01-15T06:36:00.000Z"
  },
  {
    "id": "target_008",
    "name": "杭州萧山国际机场",
    "longitude": 120.4340,
    "latitude": 30.2295,
    "height": 7,
    "region": "华东",
    "province": "浙江省",
    "city": "杭州市",
    "address": "杭州市萧山区萧山机场",
    "createdAt": "2024-01-15T07:37:00.000Z"
  },
  {
    "id": "target_009",
    "name": "南京禄口国际机场",
    "longitude": 118.8620,
    "latitude": 31.7420,
    "height": 15,
    "region": "华东",
    "province": "江苏省",
    "city": "南京市",
    "address": "南京市江宁区禄口机场",
    "createdAt": "2024-01-15T08:38:00.000Z"
  },
  {
    "id": "target_010",
    "name": "青岛胶东国际机场",
    "longitude": 120.3740,
    "latitude": 36.2615,
    "height": 44,
    "region": "华东",
    "province": "山东省",
    "city": "青岛市",
    "address": "青岛市胶州市胶东机场",
    "createdAt": "2024-01-15T09:39:00.000Z"
  },
  {
    "id": "target_011",
    "name": "天津滨海国际机场",
    "longitude": 117.3462,
    "latitude": 39.1244,
    "height": 3,
    "region": "华北",
    "province": "天津市",
    "city": "天津市",
    "address": "天津市东丽区滨海机场",
    "createdAt": "2024-01-16T10:40:00.000Z"
  },
  {
    "id": "target_012",
    "name": "重庆江北国际机场",
    "longitude": 106.6417,
    "latitude": 29.7192,
    "height": 418,
    "region": "西南",
    "province": "重庆市",
    "city": "重庆市",
    "address": "重庆市渝北区江北机场",
    "createdAt": "2024-01-16T11:41:00.000Z"
  },
  {
    "id": "target_013",
    "name": "厦门高崎国际机场",
    "longitude": 118.1275,
    "latitude": 24.5440,
    "height": 17,
    "region": "华东",
    "province": "福建省",
    "city": "厦门市",
    "address": "厦门市湖里区高崎机场",
    "createdAt": "2024-01-16T12:42:00.000Z"
  },
  {
    "id": "target_014",
    "name": "大连周水子国际机场",
    "longitude": 121.5386,
    "latitude": 38.9656,
    "height": 33,
    "region": "东北",
    "province": "辽宁省",
    "city": "大连市",
    "address": "大连市甘井子区周水子机场",
    "createdAt": "2024-01-16T13:43:00.000Z"
  },
  {
    "id": "target_015",
    "name": "沈阳桃仙国际机场",
    "longitude": 123.4834,
    "latitude": 41.6398,
    "height": 59,
    "region": "东北",
    "province": "辽宁省",
    "city": "沈阳市",
    "address": "沈阳市浑南区桃仙机场",
    "createdAt": "2024-01-16T14:44:00.000Z"
  },
  {
    "id": "target_016",
    "name": "哈尔滨太平国际机场",
    "longitude": 126.2500,
    "latitude": 45.6234,
    "height": 139,
    "region": "东北",
    "province": "黑龙江省",
    "city": "哈尔滨市",
    "address": "哈尔滨市道里区太平机场",
    "createdAt": "2024-01-16T15:45:00.000Z"
  },
  {
    "id": "target_017",
    "name": "长沙黄花国际机场",
    "longitude": 113.2200,
    "latitude": 28.1892,
    "height": 68,
    "region": "华中",
    "province": "湖南省",
    "city": "长沙市",
    "address": "长沙市长沙县黄花机场",
    "createdAt": "2024-01-16T16:46:00.000Z"
  },
  {
    "id": "target_018",
    "name": "武汉天河国际机场",
    "longitude": 114.2081,
    "latitude": 30.7838,
    "height": 35,
    "region": "华中",
    "province": "湖北省",
    "city": "武汉市",
    "address": "武汉市黄陂区天河机场",
    "createdAt": "2024-01-16T17:47:00.000Z"
  },
  {
    "id": "target_019",
    "name": "郑州新郑国际机场",
    "longitude": 113.8407,
    "latitude": 34.5197,
    "height": 153,
    "region": "华中",
    "province": "河南省",
    "city": "郑州市",
    "address": "郑州市新郑市新郑机场",
    "createdAt": "2024-01-16T18:48:00.000Z"
  },
  {
    "id": "target_020",
    "name": "太原武宿国际机场",
    "longitude": 112.6286,
    "latitude": 37.7469,
    "height": 786,
    "region": "华北",
    "province": "山西省",
    "city": "太原市",
    "address": "太原市小店区武宿机场",
    "createdAt": "2024-01-16T19:49:00.000Z"
  },
  {
    "id": "target_021",
    "name": "乌鲁木齐雷达站A",
    "longitude": 87.6177,
    "latitude": 43.7928,
    "height": 918,
    "region": "西北",
    "province": "新疆维吾尔自治区",
    "city": "乌鲁木齐市",
    "address": "乌鲁木齐市天山区雷达站A",
    "createdAt": "2024-01-17T20:50:00.000Z"
  },
  {
    "id": "target_022",
    "name": "拉萨雷达站B",
    "longitude": 91.1322,
    "latitude": 29.6544,
    "height": 3658,
    "region": "西南",
    "province": "西藏自治区",
    "city": "拉萨市",
    "address": "拉萨市城关区雷达站B",
    "createdAt": "2024-01-17T21:51:00.000Z"
  },
  {
    "id": "target_023",
    "name": "海口雷达站C",
    "longitude": 110.3312,
    "latitude": 20.0311,
    "height": 14,
    "region": "华南",
    "province": "海南省",
    "city": "海口市",
    "address": "海口市美兰区雷达站C",
    "createdAt": "2024-01-17T22:52:00.000Z"
  },
  {
    "id": "target_024",
    "name": "银川雷达站D",
    "longitude": 106.2309,
    "latitude": 38.4872,
    "height": 1111,
    "region": "西北",
    "province": "宁夏回族自治区",
    "city": "银川市",
    "address": "银川市兴庆区雷达站D",
    "createdAt": "2024-01-17T23:53:00.000Z"
  },
  {
    "id": "target_025",
    "name": "呼和浩特雷达站E",
    "longitude": 111.7519,
    "latitude": 40.8414,
    "height": 1063,
    "region": "华北",
    "province": "内蒙古自治区",
    "city": "呼和浩特市",
    "address": "呼和浩特市新城区雷达站E",
    "createdAt": "2024-01-17T00:54:00.000Z"
  },
  {
    "id": "target_026",
    "name": "南宁雷达站F",
    "longitude": 108.3669,
    "latitude": 22.8170,
    "height": 72,
    "region": "华南",
    "province": "广西壮族自治区",
    "city": "南宁市",
    "address": "南宁市青秀区雷达站F",
    "createdAt": "2024-01-17T01:55:00.000Z"
  },
  {
    "id": "target_027",
    "name": "贵阳雷达站G",
    "longitude": 106.7135,
    "latitude": 26.5783,
    "height": 1071,
    "region": "西南",
    "province": "贵州省",
    "city": "贵阳市",
    "address": "贵阳市南明区雷达站G",
    "createdAt": "2024-01-17T02:56:00.000Z"
  },
  {
    "id": "target_028",
    "name": "兰州雷达站H",
    "longitude": 103.8236,
    "latitude": 36.0581,
    "height": 1520,
    "region": "西北",
    "province": "甘肃省",
    "city": "兰州市",
    "address": "兰州市城关区雷达站H",
    "createdAt": "2024-01-17T03:57:00.000Z"
  },
  {
    "id": "target_029",
    "name": "石家庄雷达站I",
    "longitude": 114.5149,
    "latitude": 38.0428,
    "height": 81,
    "region": "华北",
    "province": "河北省",
    "city": "石家庄市",
    "address": "石家庄市长安区雷达站I",
    "createdAt": "2024-01-17T04:58:00.000Z"
  },
  {
    "id": "target_030",
    "name": "长春雷达站J",
    "longitude": 125.3245,
    "latitude": 43.8171,
    "height": 237,
    "region": "东北",
    "province": "吉林省",
    "city": "长春市",
    "address": "长春市朝阳区雷达站J",
    "createdAt": "2024-01-17T05:59:00.000Z"
  },
  {
    "id": "target_031",
    "name": "上海洋山深水港",
    "longitude": 121.9336,
    "latitude": 30.6354,
    "height": 5,
    "region": "华东",
    "province": "上海市",
    "city": "上海市",
    "address": "上海市浦东新区洋山港",
    "createdAt": "2024-01-18T07:00:00.000Z"
  },
  {
    "id": "target_032",
    "name": "深圳盐田港",
    "longitude": 114.2370,
    "latitude": 22.5584,
    "height": 3,
    "region": "华南",
    "province": "广东省",
    "city": "深圳市",
    "address": "深圳市盐田区盐田港",
    "createdAt": "2024-01-18T08:01:00.000Z"
  },
  {
    "id": "target_033",
    "name": "宁波舟山港",
    "longitude": 121.5967,
    "latitude": 29.8683,
    "height": 12,
    "region": "华东",
    "province": "浙江省",
    "city": "宁波市",
    "address": "宁波市北仑区舟山港",
    "createdAt": "2024-01-18T09:02:00.000Z"
  },
  {
    "id": "target_034",
    "name": "青岛港",
    "longitude": 120.3186,
    "latitude": 36.0986,
    "height": 5,
    "region": "华东",
    "province": "山东省",
    "city": "青岛市",
    "address": "青岛市市南区青岛港",
    "createdAt": "2024-01-18T10:03:00.000Z"
  },
  {
    "id": "target_035",
    "name": "天津港",
    "longitude": 117.7594,
    "latitude": 39.0209,
    "height": 3,
    "region": "华北",
    "province": "天津市",
    "city": "天津市",
    "address": "天津市滨海新区天津港",
    "createdAt": "2024-01-18T11:04:00.000Z"
  },
  {
    "id": "target_036",
    "name": "北京南站",
    "longitude": 116.3783,
    "latitude": 39.8648,
    "height": 50,
    "region": "华北",
    "province": "北京市",
    "city": "北京市",
    "address": "北京市丰台区北京南站",
    "createdAt": "2024-01-18T12:05:00.000Z"
  },
  {
    "id": "target_037",
    "name": "上海虹桥站",
    "longitude": 121.3197,
    "latitude": 31.1979,
    "height": 3,
    "region": "华东",
    "province": "上海市",
    "city": "上海市",
    "address": "上海市闵行区虹桥站",
    "createdAt": "2024-01-18T13:06:00.000Z"
  },
  {
    "id": "target_038",
    "name": "广州南站",
    "longitude": 113.2099,
    "latitude": 22.9888,
    "height": 6,
    "region": "华南",
    "province": "广东省",
    "city": "广州市",
    "address": "广州市番禺区广州南站",
    "createdAt": "2024-01-18T14:07:00.000Z"
  },
  {
    "id": "target_039",
    "name": "深圳北站",
    "longitude": 114.0304,
    "latitude": 22.6098,
    "height": 19,
    "region": "华南",
    "province": "广东省",
    "city": "深圳市",
    "address": "深圳市龙华区深圳北站",
    "createdAt": "2024-01-18T15:08:00.000Z"
  },
  {
    "id": "target_040",
    "name": "成都东站",
    "longitude": 104.1419,
    "latitude": 30.6118,
    "height": 506,
    "region": "西南",
    "province": "四川省",
    "city": "成都市",
    "address": "成都市成华区成都东站",
    "createdAt": "2024-01-18T16:09:00.000Z"
  },
  {
    "id": "target_041",
    "name": "北京通信中心",
    "longitude": 116.3974,
    "latitude": 39.9093,
    "height": 44,
    "region": "华北",
    "province": "北京市",
    "city": "北京市",
    "address": "北京市西城区通信中心",
    "createdAt": "2024-01-19T17:10:00.000Z"
  },
  {
    "id": "target_042",
    "name": "上海通信枢纽",
    "longitude": 121.4737,
    "latitude": 31.2304,
    "height": 4,
    "region": "华东",
    "province": "上海市",
    "city": "上海市",
    "address": "上海市浦东新区通信枢纽",
    "createdAt": "2024-01-19T18:11:00.000Z"
  },
  {
    "id": "target_043",
    "name": "广州通信基站",
    "longitude": 113.2644,
    "latitude": 23.1291,
    "height": 21,
    "region": "华南",
    "province": "广东省",
    "city": "广州市",
    "address": "广州市天河区通信基站",
    "createdAt": "2024-01-19T19:12:00.000Z"
  },
  {
    "id": "target_044",
    "name": "深圳数据中心",
    "longitude": 114.0579,
    "latitude": 22.5431,
    "height": 8,
    "region": "华南",
    "province": "广东省",
    "city": "深圳市",
    "address": "深圳市南山区数据中心",
    "createdAt": "2024-01-19T20:13:00.000Z"
  },
  {
    "id": "target_045",
    "name": "成都通信节点",
    "longitude": 104.0668,
    "latitude": 30.5728,
    "height": 506,
    "region": "西南",
    "province": "四川省",
    "city": "成都市",
    "address": "成都市武侯区通信节点",
    "createdAt": "2024-01-19T21:14:00.000Z"
  },
  {
    "id": "target_046",
    "name": "北京军区指挥部",
    "longitude": 116.4074,
    "latitude": 39.9042,
    "height": 44,
    "region": "华北",
    "province": "北京市",
    "city": "北京市",
    "address": "北京市东城区军区指挥部",
    "createdAt": "2024-01-19T22:15:00.000Z"
  },
  {
    "id": "target_047",
    "name": "南京军区总部",
    "longitude": 118.7969,
    "latitude": 32.0603,
    "height": 8,
    "region": "华东",
    "province": "江苏省",
    "city": "南京市",
    "address": "南京市鼓楼区军区总部",
    "createdAt": "2024-01-19T23:16:00.000Z"
  },
  {
    "id": "target_048",
    "name": "广州军区司令部",
    "longitude": 113.2644,
    "latitude": 23.1291,
    "height": 21,
    "region": "华南",
    "province": "广东省",
    "city": "广州市",
    "address": "广州市越秀区军区司令部",
    "createdAt": "2024-01-20T00:17:00.000Z"
  },
  {
    "id": "target_049",
    "name": "成都军区基地",
    "longitude": 114.0668,
    "latitude": 30.5728,
    "height": 506,
    "region": "西南",
    "province": "四川省",
    "city": "成都市",
    "address": "成都市青羊区军区基地",
    "createdAt": "2024-01-19T01:18:00.000Z"
  },
  {
    "id": "target_050",
    "name": "沈阳军区总部",
    "longitude": 123.4834,
    "latitude": 41.6398,
    "height": 59,
    "region": "东北",
    "province": "辽宁省",
    "city": "沈阳市",
    "address": "沈阳市和平区军区总部",
    "createdAt": "2024-01-19T02:19:00.000Z"
  }
]